[{'lng': 37.6556990197085, 'lat': 55.7584270197085, 'Location': 'Земляной Вал улица, дом 18-22, строение 2'}, {'lng': 37.6252619197085, 'lat': 55.7441442197085, 'Location': 'Пятницкая улица, дом 2/38, строение 1'}, {'lng': 37.62033401970849, 'lat': 55.7397230197085, 'Location': 'Лаврушинский переулок, дом 17, строение 2'}, {'lng': 37.58627801970849, 'lat': 55.74714401970849, 'Location': 'Арбат улица, дом 40'}, {'lng': 37.5851207197085, 'lat': 55.74640841970851, 'Location': 'Арбат улица, дом 51, строение 1'}, {'lng': 37.64487491970849, 'lat': 55.7584450197085, 'Location': 'Покровка улица, дом 19'}, {'lng': 37.58956601970849, 'lat': 55.7395270197085, 'Location': 'Пречистенка улица, дом 32/1, строение 3'}, {'lng': 37.5984790197085, 'lat': 55.7528090197085, 'Location': 'Никитский бульвар, дом 7А'}, {'lng': 37.6470600197085, 'lat': 55.7665810197085, 'Location': 'Хоромный тупик, дом 2/6'}, {'lng': 37.59842671970849, 'lat': 55.75329801970851, 'Location': 'Никитский бульвар, дом 9'}, {'lng': 37.59715901970849, 'lat': 55.7550840197085, 'Location': 'Никитский бульвар, дом 17'}, {'lng': 37.5927548197085, 'lat': 55.7579930197085, 'Location': 'Гранатный переулок, дом 2/9'}, {'lng': 37.5922878197085, 'lat': 55.7628385197085, 'Location': 'Бронная Малая улица, дом 32'}, {'lng': 37.5945900197085, 'lat': 55.7652820197085, 'Location': 'Благовещенский переулок, дом 1'}, {'lng': 37.5991817197085, 'lat': 55.7637060197085, 'Location': 'Палашевский Большой переулок, дом 15'}, {'lng': 37.6315035197085, 'lat': 55.77107511970849, 'Location': 'Сухаревская Большая площадь, дом 2'}, {'lng': 55.9789383197085, 'lat': 53.6092514197085, 'Location': 'Трубная улица, дом 14'}, {'lng': 37.61145201970849, 'lat': 55.7291770197085, 'Location': 'Житная улица, дом 18'}, {'lng': 47.8964810197085, 'lat': 56.6281300197085, 'Location': 'Гоголевский бульвар, дом 3'}, {'lng': 37.5924460197085, 'lat': 55.75355001970849, 'Location': 'Поварская улица, дом 26'}, {'lng': 37.6087079197085, 'lat': 55.7711760197085, 'Location': 'Каретный Ряд улица, дом 8'}, {'lng': 37.60130701970849, 'lat': 55.7307070197085, 'Location': 'Крымский Вал улица, дом 9, строение 2'}, {'lng': 45.9284690197085, 'lat': 51.4865181197085, 'Location': 'Крымский проезд, дом 2, строение 1/53'}, {'lng': 37.6136765197085, 'lat': 55.7435995197085, 'Location': 'Серафимовича улица, дом 5/16'}, {'lng': 37.61177641970851, 'lat': 55.7426439197085, 'Location': 'Серафимовича улица, дом 2'}, {'lng': 37.62330451970851, 'lat': 55.73919471970849, 'Location': 'Ордынка Большая улица, дом 22/2'}, {'lng': 37.6239284197085, 'lat': 55.74090741970849, 'Location': 'Ордынка Большая улица, дом 17, строение 1'}, {'lng': 37.6237645197085, 'lat': 55.7430487197085, 'Location': 'Ордынка Большая улица, дом 9/4, строение 1'}, {'lng': 37.59433961970849, 'lat': 55.7365898197085, 'Location': 'Остоженка улица, дом 47'}, {'lng': 37.59741921970849, 'lat': 55.7397260197085, 'Location': 'Остоженка улица, дом 17'}, {'lng': 37.7917078197085, 'lat': 51.3102102197085, 'Location': 'Пречистенка улица, дом 16'}, {'lng': 37.6176137197085, 'lat': 55.7328049197085, 'Location': 'Полянка Большая улица, дом 30'}, {'lng': 37.6173578197085, 'lat': 55.7345690197085, 'Location': 'Полянка Большая улица, дом 28, корпус 1'}, {'lng': 37.6255274197085, 'lat': 55.7444343197085, 'Location': 'Пятницкая улица, дом 1/2, строение 1'}, {'lng': 37.5869811197085, 'lat': 55.7552580197085, 'Location': 'Поварская улица, дом 29/36, строение 1'}, {'lng': 37.5939180197085, 'lat': 55.75320401970849, 'Location': 'Поварская улица, дом 20'}, {'lng': 37.5980022197085, 'lat': 55.7472675197085, 'Location': 'Гоголевский бульвар, дом 25, строение 1'}, {'lng': 37.57631781970849, 'lat': 55.7625740197085, 'Location': 'Грузинская Большая улица, дом 1, строение 1'}, {'lng': 37.6061372197085, 'lat': 55.7462966197085, 'Location': 'Волхонка улица, дом 10'}, {'lng': 37.60533701970849, 'lat': 55.7450780197085, 'Location': 'Волхонка улица, дом 13'}, {'lng': 35.13610901970851, 'lat': 48.3973400197085, 'Location': 'Берсеневская набережная, дом 12, строение 1'}, {'lng': 37.6381009197085, 'lat': 55.7312740197085, 'Location': 'Зацепский Вал улица, дом 6, строение 2'}, {'lng': 37.62334071970849, 'lat': 55.73228481970851, 'Location': 'Ордынка Большая улица, дом 51'}, {'lng': 37.6283360197085, 'lat': 55.7413140197085, 'Location': 'Пятницкий переулок, дом 10, строение 1'}, {'lng': 37.6268598697085, 'lat': 55.7572792697085, 'Location': 'Политехнический проезд'}, {'lng': 37.64564701970851, 'lat': 55.7670460197085, 'Location': 'Мясницкий проезд, дом 4/3'}, {'lng': 37.6253820197085, 'lat': 55.7397130197085, 'Location': 'Климентовский переулок, дом 14'}, {'lng': 37.5987049, 'lat': 55.7443614, 'Location': 'Гоголевский бульвар'}, {'lng': 37.62876551970851, 'lat': 55.7393014197085, 'Location': 'Новокузнецкая улица, дом 18, строение 1'}, {'lng': 37.6298005197085, 'lat': 55.73490731970851, 'Location': 'Новокузнецкая улица, дом 20-21/19, строение 5'}, {'lng': 37.6304852197085, 'lat': 55.7361459197085, 'Location': 'Новокузнецкая улица, дом 13, строение 1'}, {'lng': 37.6013566197085, 'lat': 55.7627530197085, 'Location': 'Большая Бронная улица, дом 27/4'}, {'lng': 37.60115931970849, 'lat': 55.7597363197085, 'Location': 'Тверской бульвар, дом 20, строение 1'}, {'lng': 37.5999649197085, 'lat': 55.7607200197085, 'Location': 'Тверской бульвар, дом 23, строение 3'}, {'lng': 37.6336721197085, 'lat': 55.7640124197085, 'Location': 'Сретенский бульвар, дом 6/1, строение 2'}, {'lng': 37.6329591197085, 'lat': 55.7654756197085, 'Location': 'Сретенский бульвар, дом 7/1'}, {'lng': 37.6350940197085, 'lat': 55.76546601970849, 'Location': 'Сретенский бульвар, дом 11'}, {'lng': 37.62997571970851, 'lat': 55.7651770197085, 'Location': 'Сретенка улица, дом 1'}, {'lng': 37.6304571197085, 'lat': 55.7657287197085, 'Location': 'Сретенка улица, дом 4'}, {'lng': 37.6369960197085, 'lat': 55.76161301970849, 'Location': 'Мясницкая улица, дом 26Б'}, {'lng': 37.63720581970851, 'lat': 55.7640859197085, 'Location': 'Мясницкая улица, дом 30/1'}, {'lng': 37.6164441197085, 'lat': 55.7447899197085, 'Location': 'Болотная площадь, дом 10'}, {'lng': 37.61539201970849, 'lat': 55.7457360197085, 'Location': 'Софийская набережная, дом 14, строение 4'}, {'lng': 37.60789201970849, 'lat': 55.76945901970851, 'Location': 'Каретный Ряд улица, дом 3, строение 3'}, {'lng': 37.6247649197085, 'lat': 55.7655322197085, 'Location': 'Рождественский бульвар, дом 11, корпус 10, строение 1'}, {'lng': 37.6273459197085, 'lat': 55.7654195197085, 'Location': 'Рождественский бульвар, дом 17'}, {'lng': 37.6286330197085, 'lat': 55.7655700197085, 'Location': 'Рождественский бульвар, дом 21, строение 2'}, {'lng': 37.6191809197085, 'lat': 55.7547541197085, 'Location': 'Никольская улица, дом 7-9, строение 4'}, {'lng': 37.61977101970849, 'lat': 55.7554730197085, 'Location': 'Никольская улица, дом 11/13, строение 1'}, {'lng': 37.6236253197085, 'lat': 55.7577695197085, 'Location': 'Никольская улица, дом 25'}, {'lng': 37.5961910197085, 'lat': 55.7565990197085, 'Location': 'Никитская Малая улица, дом 2/1, строение 1'}, {'lng': 37.5922460197085, 'lat': 55.75581201970851, 'Location': 'Никитская Большая улица, дом 37, строение 1'}, {'lng': 37.6011295197085, 'lat': 55.7439944197085, 'Location': 'Гоголевский бульвар, дом 2'}, {'lng': 37.5978374197085, 'lat': 55.7462496197085, 'Location': 'Гоголевский бульвар, дом 21'}, {'lng': 37.1851440197085, 'lat': 55.6790990197085, 'Location': 'Цветной бульвар, дом 7, строение 1'}, {'lng': 37.6213699197085, 'lat': 55.7688300197085, 'Location': 'Цветной бульвар, дом 18'}, {'lng': 37.6458761197085, 'lat': 55.75134241970849, 'Location': 'Яузский бульвар, дом 1'}, {'lng': 37.6463569197085, 'lat': 55.7512039197085, 'Location': 'Яузский бульвар, дом 3, строение 1'}, {'lng': 37.6423137197085, 'lat': 55.74959231970851, 'Location': 'Петропавловский переулок, дом 8/14'}, {'lng': 37.61245101970849, 'lat': 55.75962301970849, 'Location': 'Дмитровка Большая улица, дом 7, корпус 5, строение 5'}, {'lng': 37.6149830197085, 'lat': 55.7597210197085, 'Location': 'Дмитровка Большая улица, дом 8, строение 5'}, {'lng': 37.6116982197085, 'lat': 55.7621030197085, 'Location': 'Дмитровка Большая улица, дом 22, строение 1'}, {'lng': 37.61051751970849, 'lat': 55.7657516197085, 'Location': 'Страстной бульвар, дом 12, строение 1'}, {'lng': 37.6190536197085, 'lat': 55.7662797197085, 'Location': 'Петровский бульвар, дом 23'}, {'lng': 37.6323240197085, 'lat': 55.7333400197085, 'Location': 'Новокузнецкая улица, дом 31, строение 1'}, {'lng': 37.6330050197085, 'lat': 55.7322650197085, 'Location': 'Новокузнецкая улица, дом 33, строение 1'}, {'lng': 37.63474531970851, 'lat': 55.76302411970851, 'Location': 'Мясницкая улица, дом 21, строение 1'}, {'lng': 37.6438643197085, 'lat': 55.7674405197085, 'Location': 'Мясницкая улица, дом 48'}, {'lng': 37.6178430197085, 'lat': 55.7632740197085, 'Location': 'Неглинная улица, дом 23'}, {'lng': 37.61901801970851, 'lat': 55.7606080197085, 'Location': 'Кузнецкий Мост улица, дом 9'}, {'lng': 37.6205400197085, 'lat': 55.7608880197085, 'Location': 'Кузнецкий Мост улица, дом 11'}, {'lng': 37.6135461197085, 'lat': 55.7589629197085, 'Location': 'Камергерский переулок, дом 6/5, строение 3'}, {'lng': 37.6463826197085, 'lat': 55.7536413197085, 'Location': 'Покровский бульвар, дом 14/6'}, {'lng': 40.7134209197085, 'lat': 51.1146708697085, 'Location': 'Пятницкая улица, дом 20, строение 1'}, {'lng': 37.60945201970849, 'lat': 55.7602320197085, 'Location': 'Тверская улица, дом 6, строение 2'}, {'lng': 37.58996701970851, 'lat': 55.7637720197085, 'Location': 'Бронная Малая улица, дом 31/13'}, {'lng': 37.5979450197085, 'lat': 55.7504610197085, 'Location': 'Арбат улица, дом 1'}, {'lng': 37.6287780197085, 'lat': 55.7398330197085, 'Location': 'Климентовский переулок, дом 6'}, {'lng': 37.63000201970851, 'lat': 55.74276801970849, 'Location': 'Овчинниковский Большой переулок, дом 12, строение 1'}, {'lng': 37.61429001970851, 'lat': 55.7583840197085, 'Location': 'Дмитровка Большая улица, дом 5/6, строение 1'}, {'lng': 49.6729710197085, 'lat': 58.6057125197085, 'Location': 'Пятницкая улица, дом 29'}, {'lng': 37.5965590197085, 'lat': 55.7501413197085, 'Location': 'Арбат улица, дом 9, строение 1'}, {'lng': 37.6158178197085, 'lat': 55.76096701970851, 'Location': 'Петровка улица, дом 30, корпус 7'}, {'lng': 37.6166585197085, 'lat': 55.7380020197085, 'Location': 'Полянка Большая улица, дом 15'}, {'lng': 37.6435272197085, 'lat': 55.7516867197085, 'Location': 'Подколокольный переулок, дом 13, строение 1'}, {'lng': 37.6346846197085, 'lat': 55.7334794197085, 'Location': 'Бахрушина улица, дом 17, строение 1'}, {'lng': 37.64294201970849, 'lat': 55.74870601970851, 'Location': 'Яузский бульвар, дом 1/15, строение 5'}, {'lng': 37.61550491970849, 'lat': 55.7668378197085, 'Location': 'Петровский бульвар, дом 17'}, {'lng': 60.8267960197085, 'lat': 56.4777390197085, 'Location': 'Лебяжий переулок, дом 4, строение 4'}, {'lng': 37.6219630197085, 'lat': 55.76386101970849, 'Location': 'Рождественка улица, дом 21'}, {'lng': 37.6069320197085, 'lat': 55.7658850197085, 'Location': 'Страстной бульвар, дом 7, строение 1'}, {'lng': 37.5941243197085, 'lat': 55.7495619197085, 'Location': 'Арбат улица, дом 12, строение 2'}, {'lng': 37.5895030197085, 'lat': 55.75073301970849, 'Location': 'Новый Арбат улица, дом 17'}, {'lng': 37.6194363197085, 'lat': 55.7708095197085, 'Location': 'Цветной бульвар, дом 21, строение 1'}, {'lng': 37.58923331970851, 'lat': 55.76294031970851, 'Location': 'Ермолаевский переулок, дом 7'}, {'lng': 37.58938151970851, 'lat': 55.7623268197085, 'Location': 'Ермолаевский переулок, дом 10/7'}, {'lng': 37.5899173197085, 'lat': 55.7619495197085, 'Location': 'Патриарший Малый переулок, дом 5, строение 1'}, {'lng': 37.5961910197085, 'lat': 55.7565990197085, 'Location': 'Никитская Малая улица, дом 2/1, строение 1'}, {'lng': 37.6193076197085, 'lat': 55.76386101970849, 'Location': 'Неглинная улица, дом 16/2, строение 4'}, {'lng': 37.6274289197085, 'lat': 55.7418630197085, 'Location': 'Пятницкая улица, дом 17/4, строение 1'}, {'lng': 37.6093380197085, 'lat': 55.7596470197085, 'Location': 'Тверская улица, дом 6, строение 1'}, {'lng': 37.5989469197085, 'lat': 55.7592682197085, 'Location': 'Тверской бульвар, дом 15, строение 2'}, {'lng': 37.64279791970849, 'lat': 55.75893401970851, 'Location': 'Чистопрудный бульвар, дом 14, строение 1'}, {'lng': 39.4186389197085, 'lat': 47.1081390197085, 'Location': 'Петровский бульвар, дом 21'}, {'lng': 37.6297100197085, 'lat': 55.7393760197085, 'Location': 'Климентовский переулок, дом 1, строение 1'}, {'lng': 37.64342781970849, 'lat': 55.7608089197085, 'Location': 'Чистопрудный бульвар, дом 15, строение 1'}, {'lng': 37.6414994197085, 'lat': 55.7619688197085, 'Location': 'Чистопрудный бульвар, дом 7/2'}, {'lng': 37.6410576197085, 'lat': 55.7515102197085, 'Location': 'Подколокольный переулок, дом 11/1'}, {'lng': 37.6448126197085, 'lat': 55.7594902197085, 'Location': 'Макаренко улица, дом 2/21'}]